{"type": "FeatureCollection", "features": [{"type": "Feature", "geometry": {"type": "Point", "coordinates": [-98.5, 39.76]}, "properties": {"source_label": "Vereinigten Staaten", "geonames_label": "United States", "url": "https://www.geonames.org/6252001", "sentence_idx": 3421}}, {"type": "Feature", "geometry": {"type": "Point", "coordinates": [-100.54688, 46.07323]}, "properties": {"source_label": "Amerika", "geonames_label": "North America", "url": "https://www.geonames.org/6255149", "sentence_idx": 3431}}, {"type": "Feature", "geometry": {"type": "Point", "coordinates": [-83.00018, 40.25034]}, "properties": {"source_label": "Ohio", "geonames_label": "Ohio", "url": "https://www.geonames.org/5165418", "sentence_idx": 3432}}, {"type": "Feature", "geometry": {"type": "Point", "coordinates": [-73.86735, 45.44997]}, "properties": {"source_label": "Kirkland", "geonames_label": "Kirkland", "url": "https://www.geonames.org/5992830", "sentence_idx": 3432}}, {"type": "Feature", "geometry": {"type": "Point", "coordinates": [-92.50046, 38.25031]}, "properties": {"source_label": "Missouri", "geonames_label": "Missouri", "url": "https://www.geonames.org/4398678", "sentence_idx": 3439}}, {"type": "Feature", "geometry": {"type": "Point", "coordinates": [-83.40021, 42.3242]}, "properties": {"source_label": "Westland", "geonames_label": "Westland", "url": "https://www.geonames.org/5014681", "sentence_idx": 3439}}, {"type": "Feature", "geometry": {"type": "Point", "coordinates": [-89.25037, 40.00032]}, "properties": {"source_label": "Illinois", "geonames_label": "Illinois", "url": "https://www.geonames.org/4896861", "sentence_idx": 3442}}, {"type": "Feature", "geometry": {"type": "Point", "coordinates": [-91.38487, 40.55004]}, "properties": {"source_label": "Mississippi Nauvoo la Belle", "geonames_label": "Nauvoo", "url": "https://www.geonames.org/4903330", "sentence_idx": 3442}}, {"type": "Feature", "geometry": {"type": "Point", "coordinates": [-98.5, 39.76]}, "properties": {"source_label": "Vereinigten Staaten", "geonames_label": "United States", "url": "https://www.geonames.org/6252001", "sentence_idx": 3444}}, {"type": "Feature", "geometry": {"type": "Point", "coordinates": [-81.53702, 36.84388]}, "properties": {"source_label": "Smyth", "geonames_label": "Smyth", "url": "https://www.geonames.org/4786352", "sentence_idx": 3447}}, {"type": "Feature", "geometry": {"type": "Point", "coordinates": [-112.53491, 41.16266]}, "properties": {"source_label": "Salzsee", "geonames_label": "Great Salt Lake", "url": "https://www.geonames.org/5775376", "sentence_idx": 3447}}, {"type": "Feature", "geometry": {"type": "Point", "coordinates": [-119.75126, 37.25022]}, "properties": {"source_label": "Kalifornien", "geonames_label": "Southern California", "url": "https://www.geonames.org/11071615", "sentence_idx": 3447}}, {"type": "Feature", "geometry": {"type": "Point", "coordinates": [-111.75103, 39.25024]}, "properties": {"source_label": "Utahs", "geonames_label": "Utah", "url": "https://www.geonames.org/5549030", "sentence_idx": 3449}}, {"type": "Feature", "geometry": {"type": "Point", "coordinates": [-72.74983, 44.00034]}, "properties": {"source_label": "Vermont", "geonames_label": "Vermont", "url": "https://www.geonames.org/5242283", "sentence_idx": 3453}}, {"type": "Feature", "geometry": {"type": "Point", "coordinates": [-89.25037, 40.00032]}, "properties": {"source_label": "Illinois", "geonames_label": "Illinois", "url": "https://www.geonames.org/4896861", "sentence_idx": 3453}}, {"type": "Feature", "geometry": {"type": "Point", "coordinates": [-83.00018, 40.25034]}, "properties": {"source_label": "Ohio", "geonames_label": "Ohio", "url": "https://www.geonames.org/5165418", "sentence_idx": 3453}}, {"type": "Feature", "geometry": {"type": "Point", "coordinates": [-92.50046, 38.25031]}, "properties": {"source_label": "Missouri", "geonames_label": "Missouri", "url": "https://www.geonames.org/4398678", "sentence_idx": 3453}}, {"type": "Feature", "geometry": {"type": "Point", "coordinates": [-111.75103, 39.25024]}, "properties": {"source_label": "Utah", "geonames_label": "Provo", "url": "https://www.geonames.org/5780026", "sentence_idx": 3453}}, {"type": "Feature", "geometry": {"type": "Point", "coordinates": [-112.53491, 41.16266]}, "properties": {"source_label": "Salzsee", "geonames_label": "Great Salt Lake", "url": "https://www.geonames.org/5775376", "sentence_idx": 3456}}, {"type": "Feature", "geometry": {"type": "Point", "coordinates": [-111.97383, 41.223]}, "properties": {"source_label": "Ogden", "geonames_label": "Ogden", "url": "https://www.geonames.org/5779206", "sentence_idx": 3470}}, {"type": "Feature", "geometry": {"type": "Point", "coordinates": [-111.75103, 39.25024]}, "properties": {"source_label": "Utah", "geonames_label": "Provo", "url": "https://www.geonames.org/5780026", "sentence_idx": 3486}}]}