{"type": "FeatureCollection", "features": [{"type": "Feature", "geometry": {"type": "Point", "coordinates": [20.0, 52.0]}, "properties": {"source_label": "polen", "geonames_label": "Poland", "url": "https://www.geonames.org/798544", "sentence_idx": 740}}, {"type": "Feature", "geometry": {"type": "Point", "coordinates": [11.24626, 43.77925]}, "properties": {"source_label": "florenz", "geonames_label": "Florence", "url": "https://www.geonames.org/3176959", "sentence_idx": 741}}, {"type": "Feature", "geometry": {"type": "Point", "coordinates": [11.24626, 43.77925]}, "properties": {"source_label": "florenz", "geonames_label": "Florence", "url": "https://www.geonames.org/3176959", "sentence_idx": 741}}, {"type": "Feature", "geometry": {"type": "Point", "coordinates": [16.31229, 48.18494]}, "properties": {"source_label": "sch\u00f6nbrunn", "geonames_label": "Schonbrunn Palace", "url": "https://www.geonames.org/6354998", "sentence_idx": 742}}, {"type": "Feature", "geometry": {"type": "Point", "coordinates": [2.0, 46.0]}, "properties": {"source_label": "frankreich", "geonames_label": "France", "url": "https://www.geonames.org/3017382", "sentence_idx": 742}}, {"type": "Feature", "geometry": {"type": "Point", "coordinates": [14.26811, 40.85216]}, "properties": {"source_label": "neapel", "geonames_label": "Naples", "url": "https://www.geonames.org/3172394", "sentence_idx": 742}}, {"type": "Feature", "geometry": {"type": "Point", "coordinates": [12.51133, 41.89193]}, "properties": {"source_label": "rom", "geonames_label": "Rome", "url": "https://www.geonames.org/3169070", "sentence_idx": 742}}, {"type": "Feature", "geometry": {"type": "Point", "coordinates": [12.51133, 41.89193]}, "properties": {"source_label": "rom", "geonames_label": "Rome", "url": "https://www.geonames.org/3169070", "sentence_idx": 743}}, {"type": "Feature", "geometry": {"type": "Point", "coordinates": [11.24626, 43.77925]}, "properties": {"source_label": "florenz", "geonames_label": "Florence", "url": "https://www.geonames.org/3176959", "sentence_idx": 743}}, {"type": "Feature", "geometry": {"type": "Point", "coordinates": [20.0, 47.0]}, "properties": {"source_label": "ungarn", "geonames_label": "Hungary", "url": "https://www.geonames.org/719819", "sentence_idx": 745}}, {"type": "Feature", "geometry": {"type": "Point", "coordinates": [14.42076, 50.08804]}, "properties": {"source_label": "prag", "geonames_label": "Prague", "url": "https://www.geonames.org/3067696", "sentence_idx": 745}}, {"type": "Feature", "geometry": {"type": "Point", "coordinates": [6.64272, 50.79635]}, "properties": {"source_label": "hochkirchen", "geonames_label": "Hochkirchen", "url": "https://www.geonames.org/2903124", "sentence_idx": 745}}, {"type": "Feature", "geometry": {"type": "Point", "coordinates": [2.0, 46.0]}, "properties": {"source_label": "frankreich", "geonames_label": "France", "url": "https://www.geonames.org/3017382", "sentence_idx": 746}}, {"type": "Feature", "geometry": {"type": "Point", "coordinates": [14.26811, 40.85216]}, "properties": {"source_label": "neapel", "geonames_label": "Naples", "url": "https://www.geonames.org/3172394", "sentence_idx": 746}}, {"type": "Feature", "geometry": {"type": "Point", "coordinates": [11.24626, 43.77925]}, "properties": {"source_label": "florenz", "geonames_label": "Florence", "url": "https://www.geonames.org/3176959", "sentence_idx": 746}}, {"type": "Feature", "geometry": {"type": "Point", "coordinates": [9.18951, 45.46427]}, "properties": {"source_label": "mailand", "geonames_label": "Milan", "url": "https://www.geonames.org/3173435", "sentence_idx": 746}}, {"type": "Feature", "geometry": {"type": "Point", "coordinates": [10.32618, 44.79935]}, "properties": {"source_label": "parma", "geonames_label": "Parma", "url": "https://www.geonames.org/3171457", "sentence_idx": 746}}, {"type": "Feature", "geometry": {"type": "Point", "coordinates": [20.0, 47.0]}, "properties": {"source_label": "ungarn", "geonames_label": "Hungary", "url": "https://www.geonames.org/719819", "sentence_idx": 751}}, {"type": "Feature", "geometry": {"type": "Point", "coordinates": [17.10674, 48.14816]}, "properties": {"source_label": "pre\u00dfburg", "geonames_label": "Bratislava", "url": "https://www.geonames.org/3060972", "sentence_idx": 752}}, {"type": "Feature", "geometry": {"type": "Point", "coordinates": [17.10674, 48.14816]}, "properties": {"source_label": "pre\u00dfburg", "geonames_label": "Bratislava", "url": "https://www.geonames.org/3060972", "sentence_idx": 756}}]}