{"type": "FeatureCollection", "features": [{"type": "Feature", "geometry": {"type": "Point", "coordinates": [20.0, 47.0]}, "properties": {"source_label": "ungarn", "geonames_label": "Hungary", "url": "https://www.geonames.org/719819", "sentence_idx": 1478}}, {"type": "Feature", "geometry": {"type": "Point", "coordinates": [20.0, 47.0]}, "properties": {"source_label": "ungarn", "geonames_label": "Hungary", "url": "https://www.geonames.org/719819", "sentence_idx": 1482}}, {"type": "Feature", "geometry": {"type": "Point", "coordinates": [17.10674, 48.14816]}, "properties": {"source_label": "pre\u00dfburg", "geonames_label": "Bratislava", "url": "https://www.geonames.org/3060972", "sentence_idx": 1482}}, {"type": "Feature", "geometry": {"type": "Point", "coordinates": [16.37208, 48.20849]}, "properties": {"source_label": "wien", "geonames_label": "Vienna", "url": "https://www.geonames.org/2761369", "sentence_idx": 1482}}, {"type": "Feature", "geometry": {"type": "Point", "coordinates": [18.04436, 48.89452]}, "properties": {"source_label": "trentschin", "geonames_label": "Tren\u010d\u00edn", "url": "https://www.geonames.org/3057140", "sentence_idx": 1490}}, {"type": "Feature", "geometry": {"type": "Point", "coordinates": [20.0, 47.0]}, "properties": {"source_label": "ungarn", "geonames_label": "Hungary", "url": "https://www.geonames.org/719819", "sentence_idx": 1497}}, {"type": "Feature", "geometry": {"type": "Point", "coordinates": [20.0, 52.0]}, "properties": {"source_label": "polen", "geonames_label": "Poland", "url": "https://www.geonames.org/798544", "sentence_idx": 1497}}, {"type": "Feature", "geometry": {"type": "Point", "coordinates": [18.04436, 48.89452]}, "properties": {"source_label": "trentschin", "geonames_label": "Tren\u010d\u00edn", "url": "https://www.geonames.org/3057140", "sentence_idx": 1509}}, {"type": "Feature", "geometry": {"type": "Point", "coordinates": [20.0, 47.0]}, "properties": {"source_label": "ungarn", "geonames_label": "Hungary", "url": "https://www.geonames.org/719819", "sentence_idx": 1512}}, {"type": "Feature", "geometry": {"type": "Point", "coordinates": [16.37208, 48.20849]}, "properties": {"source_label": "wien", "geonames_label": "Vienna", "url": "https://www.geonames.org/2761369", "sentence_idx": 1512}}, {"type": "Feature", "geometry": {"type": "Point", "coordinates": [10.5, 51.5]}, "properties": {"source_label": "deutschland", "geonames_label": "Germany", "url": "https://www.geonames.org/2921044", "sentence_idx": 1525}}, {"type": "Feature", "geometry": {"type": "Point", "coordinates": [16.37208, 48.20849]}, "properties": {"source_label": "wien", "geonames_label": "Vienna", "url": "https://www.geonames.org/2761369", "sentence_idx": 1528}}, {"type": "Feature", "geometry": {"type": "Point", "coordinates": [18.08453, 48.30763]}, "properties": {"source_label": "nitra", "geonames_label": "Nitra", "url": "https://www.geonames.org/3058531", "sentence_idx": 1529}}, {"type": "Feature", "geometry": {"type": "Point", "coordinates": [20.0, 47.0]}, "properties": {"source_label": "ungarn", "geonames_label": "Hungary", "url": "https://www.geonames.org/719819", "sentence_idx": 1531}}, {"type": "Feature", "geometry": {"type": "Point", "coordinates": [18.91003, 48.44858]}, "properties": {"source_label": "schemnitz", "geonames_label": "Bansk\u00e1 \u0160tiavnica", "url": "https://www.geonames.org/3061184", "sentence_idx": 1536}}, {"type": "Feature", "geometry": {"type": "Point", "coordinates": [18.91003, 48.44858]}, "properties": {"source_label": "schemnitz", "geonames_label": "Bansk\u00e1 \u0160tiavnica", "url": "https://www.geonames.org/3061184", "sentence_idx": 1537}}, {"type": "Feature", "geometry": {"type": "Point", "coordinates": [13.25, 51.0]}, "properties": {"source_label": "sachsen", "geonames_label": "Saxony", "url": "https://www.geonames.org/2842566", "sentence_idx": 1539}}, {"type": "Feature", "geometry": {"type": "Point", "coordinates": [18.91003, 48.44858]}, "properties": {"source_label": "schemnitz", "geonames_label": "Bansk\u00e1 \u0160tiavnica", "url": "https://www.geonames.org/3061184", "sentence_idx": 1547}}, {"type": "Feature", "geometry": {"type": "Point", "coordinates": [18.91003, 48.44858]}, "properties": {"source_label": "schemnitz", "geonames_label": "Bansk\u00e1 \u0160tiavnica", "url": "https://www.geonames.org/3061184", "sentence_idx": 1556}}]}