{"type": "FeatureCollection", "features": [{"type": "Feature", "geometry": {"type": "Point", "coordinates": [16.31229, 48.18494]}, "properties": {"source_label": "sch\u00f6nbrunn", "geonames_label": "Schonbrunn Palace", "url": "https://www.geonames.org/6354998", "sentence_idx": 1915}}, {"type": "Feature", "geometry": {"type": "Point", "coordinates": [16.37208, 48.20849]}, "properties": {"source_label": "wien", "geonames_label": "Vienna", "url": "https://www.geonames.org/2761369", "sentence_idx": 1917}}, {"type": "Feature", "geometry": {"type": "Point", "coordinates": [17.10674, 48.14816]}, "properties": {"source_label": "pre\u00dfburg", "geonames_label": "Bratislava", "url": "https://www.geonames.org/3060972", "sentence_idx": 1917}}, {"type": "Feature", "geometry": {"type": "Point", "coordinates": [14.26811, 40.85216]}, "properties": {"source_label": "neapel", "geonames_label": "Naples", "url": "https://www.geonames.org/3172394", "sentence_idx": 1920}}, {"type": "Feature", "geometry": {"type": "Point", "coordinates": [14.26811, 40.85216]}, "properties": {"source_label": "neapel", "geonames_label": "Naples", "url": "https://www.geonames.org/3172394", "sentence_idx": 1924}}, {"type": "Feature", "geometry": {"type": "Point", "coordinates": [10.32618, 44.79935]}, "properties": {"source_label": "parma", "geonames_label": "Parma", "url": "https://www.geonames.org/3171457", "sentence_idx": 1924}}, {"type": "Feature", "geometry": {"type": "Point", "coordinates": [2.0, 46.0]}, "properties": {"source_label": "frankreich", "geonames_label": "France", "url": "https://www.geonames.org/3017382", "sentence_idx": 1925}}, {"type": "Feature", "geometry": {"type": "Point", "coordinates": [2.13424, 48.80359]}, "properties": {"source_label": "versailles", "geonames_label": "Versailles", "url": "https://www.geonames.org/2969679", "sentence_idx": 1925}}, {"type": "Feature", "geometry": {"type": "Point", "coordinates": [13.25, 51.0]}, "properties": {"source_label": "sachsen", "geonames_label": "Saxony", "url": "https://www.geonames.org/2842566", "sentence_idx": 1929}}]}