{"type": "FeatureCollection", "features": [{"type": "Feature", "geometry": {"type": "Point", "coordinates": [16.4, 48.21667]}, "properties": {"source_label": "leopoldstadt", "sentence_idx": 1636}}, {"type": "Feature", "geometry": {"type": "Point", "coordinates": [29.66667, 45.33333]}, "properties": {"source_label": "donau", "sentence_idx": 1644}}, {"type": "Feature", "geometry": {"type": "Point", "coordinates": [16.41169, 48.20609]}, "properties": {"source_label": "prater", "sentence_idx": 1647}}, {"type": "Feature", "geometry": {"type": "Point", "coordinates": [16.41169, 48.20609]}, "properties": {"source_label": "prater", "sentence_idx": 1650}}, {"type": "Feature", "geometry": {"type": "Point", "coordinates": [14.26811, 40.85216]}, "properties": {"source_label": "neapel", "sentence_idx": 1660}}, {"type": "Feature", "geometry": {"type": "Point", "coordinates": [11.5, 48.5]}, "properties": {"source_label": "bayern", "sentence_idx": 1665}}, {"type": "Feature", "geometry": {"type": "Point", "coordinates": [14.68333, 47.18333]}, "properties": {"source_label": "hetzendorf", "sentence_idx": 1665}}, {"type": "Feature", "geometry": {"type": "Point", "coordinates": [16.35607, 48.06833]}, "properties": {"source_label": "laxenburg", "sentence_idx": 1665}}, {"type": "Feature", "geometry": {"type": "Point", "coordinates": [11.06857, 50.21973]}, "properties": {"source_label": "ebersdorf", "sentence_idx": 1665}}, {"type": "Feature", "geometry": {"type": "Point", "coordinates": [12.78122, 48.03118]}, "properties": {"source_label": "piesenberg", "sentence_idx": 1665}}, {"type": "Feature", "geometry": {"type": "Point", "coordinates": [15.72051, 48.45848]}, "properties": {"source_label": "hadersdorf", "sentence_idx": 1665}}, {"type": "Feature", "geometry": {"type": "Point", "coordinates": [16.31229, 48.18494]}, "properties": {"source_label": "sch\u00f6nbrunn", "sentence_idx": 1666}}, {"type": "Feature", "geometry": {"type": "Point", "coordinates": [16.37208, 48.20849]}, "properties": {"source_label": "wien", "sentence_idx": 1666}}]}