{"type": "FeatureCollection", "features": [{"type": "Feature", "geometry": {"type": "Point", "coordinates": [12.56553, 55.67594]}, "properties": {"source_label": "kopenhagen", "geonames_label": "Copenhagen", "url": "https://www.geonames.org/2618425", "sentence_idx": 168}}, {"type": "Feature", "geometry": {"type": "Point", "coordinates": [12.56553, 55.67594]}, "properties": {"source_label": "kopenhagen", "geonames_label": "Copenhagen", "url": "https://www.geonames.org/2618425", "sentence_idx": 169}}, {"type": "Feature", "geometry": {"type": "Point", "coordinates": [12.6136, 56.03606]}, "properties": {"source_label": "helsing\u00f8r", "geonames_label": "Elsinore", "url": "https://www.geonames.org/2620473", "sentence_idx": 176}}, {"type": "Feature", "geometry": {"type": "Point", "coordinates": [12.56553, 55.67594]}, "properties": {"source_label": "kopenhagen", "geonames_label": "Copenhagen", "url": "https://www.geonames.org/2618425", "sentence_idx": 177}}, {"type": "Feature", "geometry": {"type": "Point", "coordinates": [12.6136, 56.03606]}, "properties": {"source_label": "helsing\u00f8r", "geonames_label": "Elsinore", "url": "https://www.geonames.org/2620473", "sentence_idx": 184}}, {"type": "Feature", "geometry": {"type": "Point", "coordinates": [12.69437, 56.04673]}, "properties": {"source_label": "helsingborg", "geonames_label": "Helsingborg", "url": "https://www.geonames.org/2706767", "sentence_idx": 184}}, {"type": "Feature", "geometry": {"type": "Point", "coordinates": [11.58218, 57.88699]}, "properties": {"source_label": "marstrand", "geonames_label": "Marstrand", "url": "https://www.geonames.org/2692469", "sentence_idx": 200}}, {"type": "Feature", "geometry": {"type": "Point", "coordinates": [12.56553, 55.67594]}, "properties": {"source_label": "kopenhagen", "geonames_label": "Copenhagen", "url": "https://www.geonames.org/2618425", "sentence_idx": 209}}, {"type": "Feature", "geometry": {"type": "Point", "coordinates": [10.0, 62.0]}, "properties": {"source_label": "norwegen", "geonames_label": "Norway", "url": "https://www.geonames.org/3144096", "sentence_idx": 214}}, {"type": "Feature", "geometry": {"type": "Point", "coordinates": [12.6136, 56.03606]}, "properties": {"source_label": "helsing\u00f8r", "geonames_label": "Elsinore", "url": "https://www.geonames.org/2620473", "sentence_idx": 214}}, {"type": "Feature", "geometry": {"type": "Point", "coordinates": [12.6136, 56.03606]}, "properties": {"source_label": "helsing\u00f8r", "geonames_label": "Elsinore", "url": "https://www.geonames.org/2620473", "sentence_idx": 217}}, {"type": "Feature", "geometry": {"type": "Point", "coordinates": [12.56553, 55.67594]}, "properties": {"source_label": "kopenhagen", "geonames_label": "Copenhagen", "url": "https://www.geonames.org/2618425", "sentence_idx": 218}}, {"type": "Feature", "geometry": {"type": "Point", "coordinates": [12.56553, 55.67594]}, "properties": {"source_label": "kopenhagen", "geonames_label": "Copenhagen", "url": "https://www.geonames.org/2618425", "sentence_idx": 221}}, {"type": "Feature", "geometry": {"type": "Point", "coordinates": [12.6136, 56.03606]}, "properties": {"source_label": "helsing\u00f8r", "geonames_label": "Elsinore", "url": "https://www.geonames.org/2620473", "sentence_idx": 221}}, {"type": "Feature", "geometry": {"type": "Point", "coordinates": [5.38107, 43.29695]}, "properties": {"source_label": "marseille", "geonames_label": "Marseille", "url": "https://www.geonames.org/2995469", "sentence_idx": 228}}, {"type": "Feature", "geometry": {"type": "Point", "coordinates": [12.56553, 55.67594]}, "properties": {"source_label": "kopenhagen", "geonames_label": "Copenhagen", "url": "https://www.geonames.org/2618425", "sentence_idx": 228}}, {"type": "Feature", "geometry": {"type": "Point", "coordinates": [12.6136, 56.03606]}, "properties": {"source_label": "helsing\u00f8r", "geonames_label": "Elsinore", "url": "https://www.geonames.org/2620473", "sentence_idx": 231}}, {"type": "Feature", "geometry": {"type": "Point", "coordinates": [12.56553, 55.67594]}, "properties": {"source_label": "kopenhagen", "geonames_label": "Copenhagen", "url": "https://www.geonames.org/2618425", "sentence_idx": 239}}, {"type": "Feature", "geometry": {"type": "Point", "coordinates": [12.56553, 55.67594]}, "properties": {"source_label": "kopenhagen", "geonames_label": "Copenhagen", "url": "https://www.geonames.org/2618425", "sentence_idx": 242}}]}