{"type": "FeatureCollection", "features": [{"type": "Feature", "geometry": {"type": "Point", "coordinates": [37.61667, 36.25]}, "properties": {"source_label": "aleppo", "sentence_idx": 3}}, {"type": "Feature", "geometry": {"type": "Point", "coordinates": [31.24967, 30.06263]}, "properties": {"source_label": "cairo", "sentence_idx": 5}}, {"type": "Feature", "geometry": {"type": "Point", "coordinates": [30.0, 27.0]}, "properties": {"source_label": "aegypten", "sentence_idx": 5}}, {"type": "Feature", "geometry": {"type": "Point", "coordinates": [28.94966, 41.01384]}, "properties": {"source_label": "constantinopel", "sentence_idx": 5}}, {"type": "Feature", "geometry": {"type": "Point", "coordinates": [9.99302, 53.55073]}, "properties": {"source_label": "hamburg", "sentence_idx": 6}}, {"type": "Feature", "geometry": {"type": "Point", "coordinates": [10.5, 51.5]}, "properties": {"source_label": "deutschland", "sentence_idx": 12}}, {"type": "Feature", "geometry": {"type": "Point", "coordinates": [12.33265, 45.43713]}, "properties": {"source_label": "venedig", "sentence_idx": 17}}, {"type": "Feature", "geometry": {"type": "Point", "coordinates": [31.24967, 30.06263]}, "properties": {"source_label": "cairo", "sentence_idx": 17}}, {"type": "Feature", "geometry": {"type": "Point", "coordinates": [30.0, 27.0]}, "properties": {"source_label": "aegypten", "sentence_idx": 17}}, {"type": "Feature", "geometry": {"type": "Point", "coordinates": [28.94966, 41.01384]}, "properties": {"source_label": "constantinopel", "sentence_idx": 17}}, {"type": "Feature", "geometry": {"type": "Point", "coordinates": [26.55597, 41.67719]}, "properties": {"source_label": "adrianopel", "sentence_idx": 17}}, {"type": "Feature", "geometry": {"type": "Point", "coordinates": [24.75, 42.15]}, "properties": {"source_label": "philippopel", "sentence_idx": 17}}, {"type": "Feature", "geometry": {"type": "Point", "coordinates": [20.46513, 44.80401]}, "properties": {"source_label": "belgrad", "sentence_idx": 17}}, {"type": "Feature", "geometry": {"type": "Point", "coordinates": [16.5, 43.16667]}, "properties": {"source_label": "dalmatien", "sentence_idx": 17}}, {"type": "Feature", "geometry": {"type": "Point", "coordinates": [12.33265, 45.43713]}, "properties": {"source_label": "venedig", "sentence_idx": 17}}, {"type": "Feature", "geometry": {"type": "Point", "coordinates": [9.99302, 53.55073]}, "properties": {"source_label": "hamburg", "sentence_idx": 20}}, {"type": "Feature", "geometry": {"type": "Point", "coordinates": [37.61667, 36.25]}, "properties": {"source_label": "aleppo", "sentence_idx": 21}}, {"type": "Feature", "geometry": {"type": "Point", "coordinates": [-0.70312, 52.16045]}, "properties": {"source_label": "england", "sentence_idx": 22}}, {"type": "Feature", "geometry": {"type": "Point", "coordinates": [37.61667, 36.25]}, "properties": {"source_label": "aleppo", "sentence_idx": 23}}, {"type": "Feature", "geometry": {"type": "Point", "coordinates": [37.61667, 36.25]}, "properties": {"source_label": "aleppo", "sentence_idx": 23}}, {"type": "Feature", "geometry": {"type": "Point", "coordinates": [9.14062, 48.69096]}, "properties": {"source_label": "europa", "sentence_idx": 24}}]}