{"type": "FeatureCollection", "features": [{"type": "Feature", "geometry": {"type": "Point", "coordinates": [34.75224, 32.05043]}, "properties": {"source_label": "jaffa", "sentence_idx": 2346}}, {"type": "Feature", "geometry": {"type": "Point", "coordinates": [34.46411, 31.51065]}, "properties": {"source_label": "gaza", "sentence_idx": 2346}}, {"type": "Feature", "geometry": {"type": "Point", "coordinates": [35.0, 31.75]}, "properties": {"source_label": "jerusalem", "sentence_idx": 2346}}, {"type": "Feature", "geometry": {"type": "Point", "coordinates": [35.21633, 31.76904]}, "properties": {"source_label": "jerusalem", "sentence_idx": 2350}}, {"type": "Feature", "geometry": {"type": "Point", "coordinates": [33.1, 35.06667]}, "properties": {"source_label": "nicosia", "sentence_idx": 2351}}, {"type": "Feature", "geometry": {"type": "Point", "coordinates": [33.0, 35.0]}, "properties": {"source_label": "cypern", "sentence_idx": 2357}}, {"type": "Feature", "geometry": {"type": "Point", "coordinates": [35.37148, 33.55751]}, "properties": {"source_label": "saida", "sentence_idx": 2359}}, {"type": "Feature", "geometry": {"type": "Point", "coordinates": [35.37148, 33.55751]}, "properties": {"source_label": "saida", "sentence_idx": 2360}}, {"type": "Feature", "geometry": {"type": "Point", "coordinates": [35.33333, 32.9]}, "properties": {"source_label": "galilaea", "sentence_idx": 2363}}, {"type": "Feature", "geometry": {"type": "Point", "coordinates": [35.29722, 32.70056]}, "properties": {"source_label": "nazaret", "sentence_idx": 2370}}, {"type": "Feature", "geometry": {"type": "Point", "coordinates": [35.02829, 32.80814]}, "properties": {"source_label": "bach cison", "sentence_idx": 2370}}, {"type": "Feature", "geometry": {"type": "Point", "coordinates": [35.16667, 32.25]}, "properties": {"source_label": "samaria", "sentence_idx": 2373}}, {"type": "Feature", "geometry": {"type": "Point", "coordinates": [35.0, 31.75]}, "properties": {"source_label": "jerusalem", "sentence_idx": 2377}}, {"type": "Feature", "geometry": {"type": "Point", "coordinates": [35.16667, 32.25]}, "properties": {"source_label": "samaria", "sentence_idx": 2378}}, {"type": "Feature", "geometry": {"type": "Point", "coordinates": [35.0, 31.58333]}, "properties": {"source_label": "judea", "sentence_idx": 2378}}, {"type": "Feature", "geometry": {"type": "Point", "coordinates": [35.0, 31.75]}, "properties": {"source_label": "jerusalem", "sentence_idx": 2380}}]}