{
    "type": "FeatureCollection",
    "features": [
        {
            "type": "Feature",
            "geometry": {
                "type": "Point",
                "coordinates": [
                    12.33265,
                    45.43713
                ]
            },
            "properties": {
                "source_label": "venedig",
                "geonames_label": "Venice",
                "url": "https://www.geonames.org/3164603",
                "sentence_idx": 2211
            }
        },
        {
            "type": "Feature",
            "geometry": {
                "type": "Point",
                "coordinates": [
                    16.25927,
                    42.39252
                ]
            },
            "properties": {
                "source_label": "pelagosa",
                "geonames_label": "Otok Palagru\u017ea",
                "url": "https://www.geonames.org/3193699",
                "sentence_idx": 2212
            }
        },
        {
            "type": "Feature",
            "geometry": {
                "type": "Point",
                "coordinates": [
                    14.6,
                    36.91667
                ]
            },
            "properties": {
                "source_label": "rahagusa",
                "geonames_label": "Province of Ragusa",
                "url": "https://www.geonames.org/2523649",
                "sentence_idx": 2212
            }
        },
        {
            "type": "Feature",
            "geometry": {
                "type": "Point",
                "coordinates": [
                    22.41777,
                    37.62334
                ]
            },
            "properties": {
                "source_label": "peloponesus",
                "geonames_label": "Peloponnese",
                "url": "https://www.geonames.org/9062330",
                "sentence_idx": 2215
            }
        },
        {
            "type": "Feature",
            "geometry": {
                "type": "Point",
                "coordinates": [
                    20.58333,
                    38.25
                ]
            },
            "properties": {
                "source_label": "cafalonia",
                "geonames_label": "Kefalonia",
                "url": "https://www.geonames.org/260311",
                "sentence_idx": 2223
            }
        },
        {
            "type": "Feature",
            "geometry": {
                "type": "Point",
                "coordinates": [
                    13.33333,
                    47.33333
                ]
            },
            "properties": {
                "source_label": "austria",
                "geonames_label": "Austria",
                "url": "https://www.geonames.org/2782113",
                "sentence_idx": 2224
            }
        },
        {
            "type": "Feature",
            "geometry": {
                "type": "Point",
                "coordinates": [
                    12.30079,
                    45.59762
                ]
            },
            "properties": {
                "source_label": "morea",
                "geonames_label": "Morea",
                "url": "https://www.geonames.org/8965787",
                "sentence_idx": 2225
            }
        },
        {
            "type": "Feature",
            "geometry": {
                "type": "Point",
                "coordinates": [
                    10.50231,
                    43.29476
                ]
            },
            "properties": {
                "source_label": "tornese",
                "geonames_label": "Tornese",
                "url": "https://www.geonames.org/9612524",
                "sentence_idx": 2226
            }
        },
        {
            "type": "Feature",
            "geometry": {
                "type": "Point",
                "coordinates": [
                    23.79649,
                    38.31942
                ]
            },
            "properties": {
                "source_label": "palatia",
                "geonames_label": "Nea Palatia",
                "url": "https://www.geonames.org/256593",
                "sentence_idx": 2231
            }
        },
        {
            "type": "Feature",
            "geometry": {
                "type": "Point",
                "coordinates": [
                    12.83333,
                    42.83333
                ]
            },
            "properties": {
                "source_label": "italien",
                "geonames_label": "Italy",
                "url": "https://www.geonames.org/3175395",
                "sentence_idx": 2234
            }
        },
        {
            "type": "Feature",
            "geometry": {
                "type": "Point",
                "coordinates": [
                    20.58333,
                    38.25
                ]
            },
            "properties": {
                "source_label": "cefalonia",
                "geonames_label": "Kefalonia",
                "url": "https://www.geonames.org/260311",
                "sentence_idx": 2240
            }
        },
        {
            "type": "Feature",
            "geometry": {
                "type": "Point",
                "coordinates": [
                    13.49293,
                    43.56553
                ]
            },
            "properties": {
                "source_label": "candia",
                "geonames_label": "Candia",
                "url": "https://www.geonames.org/3180870",
                "sentence_idx": 2240
            }
        },
        {
            "type": "Feature",
            "geometry": {
                "type": "Point",
                "coordinates": [
                    12.33265,
                    45.43713
                ]
            },
            "properties": {
                "source_label": "venedig",
                "geonames_label": "Venice",
                "url": "https://www.geonames.org/3164603",
                "sentence_idx": 2241
            }
        },
        {
            "type": "Feature",
            "geometry": {
                "type": "Point",
                "coordinates": [
                    11.64222,
                    48.05139
                ]
            },
            "properties": {
                "source_label": "muenchen",
                "geonames_label": "Munich",
                "url": "https://www.geonames.org/3220838",
                "sentence_idx": 2241
            }
        },
        {
            "type": "Feature",
            "geometry": {
                "type": "Point",
                "coordinates": [
                    20.76749,
                    37.78845
                ]
            },
            "properties": {
                "source_label": "zanthe",
                "geonames_label": "Zakynthos",
                "url": "https://www.geonames.org/251279",
                "sentence_idx": 2241
            }
        },
        {
            "type": "Feature",
            "geometry": {
                "type": "Point",
                "coordinates": [
                    12.30079,
                    45.59762
                ]
            },
            "properties": {
                "source_label": "morea",
                "geonames_label": "Morea",
                "url": "https://www.geonames.org/8965787",
                "sentence_idx": 2249
            }
        },
        {
            "type": "Feature",
            "geometry": {
                "type": "Point",
                "coordinates": [
                    24.23788,
                    36.78914
                ]
            },
            "properties": {
                "source_label": "antimilo",
                "geonames_label": "Nis\u00edda Ant\u00edmilos",
                "url": "https://www.geonames.org/265077",
                "sentence_idx": 2249
            }
        },
        {
            "type": "Feature",
            "geometry": {
                "type": "Point",
                "coordinates": [
                    24.7036,
                    36.97382
                ]
            },
            "properties": {
                "source_label": "sifanto",
                "geonames_label": "Sifnos",
                "url": "https://www.geonames.org/253923",
                "sentence_idx": 2252
            }
        },
        {
            "type": "Feature",
            "geometry": {
                "type": "Point",
                "coordinates": [
                    2.3488,
                    48.85341
                ]
            },
            "properties": {
                "source_label": "paris",
                "geonames_label": "Paris",
                "url": "https://www.geonames.org/2968815",
                "sentence_idx": 2253
            }
        },
        {
            "type": "Feature",
            "geometry": {
                "type": "Point",
                "coordinates": [
                    15.11589,
                    37.72326
                ]
            },
            "properties": {
                "source_label": "milo",
                "geonames_label": "Milo",
                "url": "https://www.geonames.org/6541769",
                "sentence_idx": 2254
            }
        },
        {
            "type": "Feature",
            "geometry": {
                "type": "Point",
                "coordinates": [
                    13.25149,
                    42.71262
                ]
            },
            "properties": {
                "source_label": "tino",
                "geonames_label": "Tino",
                "url": "https://www.geonames.org/3165656",
                "sentence_idx": 2255
            }
        },
        {
            "type": "Feature",
            "geometry": {
                "type": "Point",
                "coordinates": [
                    26.17033,
                    37.59904
                ]
            },
            "properties": {
                "source_label": "nicaria",
                "geonames_label": "Icaria",
                "url": "https://www.geonames.org/261804",
                "sentence_idx": 2255
            }
        },
        {
            "type": "Feature",
            "geometry": {
                "type": "Point",
                "coordinates": [
                    12.33265,
                    45.43713
                ]
            },
            "properties": {
                "source_label": "venedig",
                "geonames_label": "Venice",
                "url": "https://www.geonames.org/3164603",
                "sentence_idx": 2257
            }
        },
        {
            "type": "Feature",
            "geometry": {
                "type": "Point",
                "coordinates": [
                    27.13838,
                    38.41273
                ]
            },
            "properties": {
                "source_label": "smyrnen",
                "geonames_label": "Izmir",
                "url": "https://www.geonames.org/311046",
                "sentence_idx": 2270
            }
        },
        {
            "type": "Feature",
            "geometry": {
                "type": "Point",
                "coordinates": [
                    12.33265,
                    45.43713
                ]
            },
            "properties": {
                "source_label": "venedig",
                "geonames_label": "Venice",
                "url": "https://www.geonames.org/3164603",
                "sentence_idx": 2270
            }
        },
        {
            "type": "Feature",
            "geometry": {
                "type": "Point",
                "coordinates": [
                    11.35739,
                    45.7124
                ]
            },
            "properties": {
                "source_label": "scio",
                "geonames_label": "Schio",
                "url": "https://www.geonames.org/6538270",
                "sentence_idx": 2280
            }
        },
        {
            "type": "Feature",
            "geometry": {
                "type": "Point",
                "coordinates": [
                    28.94966,
                    41.01384
                ]
            },
            "properties": {
                "source_label": "constantinopel",
                "geonames_label": "Istanbul",
                "url": "https://www.geonames.org/745044",
                "sentence_idx": 2283
            }
        },
        {
            "type": "Feature",
            "geometry": {
                "type": "Point",
                "coordinates": [
                    12.33265,
                    45.43713
                ]
            },
            "properties": {
                "source_label": "venedig",
                "geonames_label": "Venice",
                "url": "https://www.geonames.org/3164603",
                "sentence_idx": 2284
            }
        },
        {
            "type": "Feature",
            "geometry": {
                "type": "Point",
                "coordinates": [
                    27.13838,
                    38.41273
                ]
            },
            "properties": {
                "source_label": "smyrna",
                "geonames_label": "Izmir",
                "url": "https://www.geonames.org/311046",
                "sentence_idx": 2288
            }
        },
        {
            "type": "Feature",
            "geometry": {
                "type": "Point",
                "coordinates": [
                    26.36221,
                    36.5758
                ]
            },
            "properties": {
                "source_label": "stampalia",
                "geonames_label": "Astypalaia",
                "url": "https://www.geonames.org/264407",
                "sentence_idx": 2294
            }
        },
        {
            "type": "Feature",
            "geometry": {
                "type": "Point",
                "coordinates": [
                    12.33265,
                    45.43713
                ]
            },
            "properties": {
                "source_label": "venedig",
                "geonames_label": "Venice",
                "url": "https://www.geonames.org/3164603",
                "sentence_idx": 2295
            }
        },
        {
            "type": "Feature",
            "geometry": {
                "type": "Point",
                "coordinates": [
                    12.33265,
                    45.43713
                ]
            },
            "properties": {
                "source_label": "venedig",
                "geonames_label": "Venice",
                "url": "https://www.geonames.org/3164603",
                "sentence_idx": 2303
            }
        },
        {
            "type": "Feature",
            "geometry": {
                "type": "Point",
                "coordinates": [
                    12.33265,
                    45.43713
                ]
            },
            "properties": {
                "source_label": "venedig",
                "geonames_label": "Venice",
                "url": "https://www.geonames.org/3164603",
                "sentence_idx": 2303
            }
        },
        {
            "type": "Feature",
            "geometry": {
                "type": "Point",
                "coordinates": [
                    12.33265,
                    45.43713
                ]
            },
            "properties": {
                "source_label": "venedig",
                "geonames_label": "Venice",
                "url": "https://www.geonames.org/3164603",
                "sentence_idx": 2303
            }
        },
        {
            "type": "Feature",
            "geometry": {
                "type": "Point",
                "coordinates": [
                    12.33902,
                    45.37232
                ]
            },
            "properties": {
                "source_label": "malamocco",
                "geonames_label": "Malamocco",
                "url": "https://www.geonames.org/3174197",
                "sentence_idx": 2309
            }
        }
    ]
}