{"type": "FeatureCollection", "features": [{"type": "Feature", "geometry": {"type": "Point", "coordinates": [35.0, 31.75]}, "properties": {"source_label": "jerusalem", "sentence_idx": 2431}}, {"type": "Feature", "geometry": {"type": "Point", "coordinates": [31.24967, 30.06263]}, "properties": {"source_label": "cairo", "sentence_idx": 2434}}, {"type": "Feature", "geometry": {"type": "Point", "coordinates": [35.55792, 31.76025]}, "properties": {"source_label": "jordan", "sentence_idx": 2434}}, {"type": "Feature", "geometry": {"type": "Point", "coordinates": [35.0, 31.75]}, "properties": {"source_label": "jerusalem", "sentence_idx": 2434}}, {"type": "Feature", "geometry": {"type": "Point", "coordinates": [35.0, 31.75]}, "properties": {"source_label": "jerusalem", "sentence_idx": 2442}}, {"type": "Feature", "geometry": {"type": "Point", "coordinates": [34.75, 31.5]}, "properties": {"source_label": "israel", "sentence_idx": 2447}}, {"type": "Feature", "geometry": {"type": "Point", "coordinates": [35.2305, 31.78164]}, "properties": {"source_label": "porta di damasco", "sentence_idx": 2447}}, {"type": "Feature", "geometry": {"type": "Point", "coordinates": [35.0, 31.75]}, "properties": {"source_label": "jerusalem", "sentence_idx": 2448}}, {"type": "Feature", "geometry": {"type": "Point", "coordinates": [35.0, 31.75]}, "properties": {"source_label": "jerusalem", "sentence_idx": 2450}}, {"type": "Feature", "geometry": {"type": "Point", "coordinates": [30.0, 27.0]}, "properties": {"source_label": "aegypten", "sentence_idx": 2450}}, {"type": "Feature", "geometry": {"type": "Point", "coordinates": [34.46411, 31.51065]}, "properties": {"source_label": "gaza", "sentence_idx": 2457}}, {"type": "Feature", "geometry": {"type": "Point", "coordinates": [34.75224, 32.05043]}, "properties": {"source_label": "jaffa", "sentence_idx": 2458}}, {"type": "Feature", "geometry": {"type": "Point", "coordinates": [34.75224, 32.05043]}, "properties": {"source_label": "jaffa", "sentence_idx": 2460}}, {"type": "Feature", "geometry": {"type": "Point", "coordinates": [34.46411, 31.51065]}, "properties": {"source_label": "gaza", "sentence_idx": 2461}}, {"type": "Feature", "geometry": {"type": "Point", "coordinates": [31.81332, 31.41648]}, "properties": {"source_label": "damiata", "sentence_idx": 2467}}, {"type": "Feature", "geometry": {"type": "Point", "coordinates": [31.81332, 31.41648]}, "properties": {"source_label": "damiata", "sentence_idx": 2467}}, {"type": "Feature", "geometry": {"type": "Point", "coordinates": [30.0, 27.0]}, "properties": {"source_label": "aegypten", "sentence_idx": 2469}}, {"type": "Feature", "geometry": {"type": "Point", "coordinates": [30.0, 27.0]}, "properties": {"source_label": "aegypten", "sentence_idx": 2469}}, {"type": "Feature", "geometry": {"type": "Point", "coordinates": [31.38069, 31.03637]}, "properties": {"source_label": "mansura", "sentence_idx": 2472}}, {"type": "Feature", "geometry": {"type": "Point", "coordinates": [31.24967, 30.06263]}, "properties": {"source_label": "cairo", "sentence_idx": 2472}}, {"type": "Feature", "geometry": {"type": "Point", "coordinates": [31.24967, 30.06263]}, "properties": {"source_label": "cairo", "sentence_idx": 2476}}, {"type": "Feature", "geometry": {"type": "Point", "coordinates": [31.81332, 31.41648]}, "properties": {"source_label": "damiata", "sentence_idx": 2477}}, {"type": "Feature", "geometry": {"type": "Point", "coordinates": [31.24967, 30.06263]}, "properties": {"source_label": "cairo", "sentence_idx": 2477}}, {"type": "Feature", "geometry": {"type": "Point", "coordinates": [31.24967, 30.06263]}, "properties": {"source_label": "cairo", "sentence_idx": 2481}}]}