{"type": "FeatureCollection", "features": [{"type": "Feature", "geometry": {"type": "Point", "coordinates": [-80.00032, 35.50069]}, "properties": {"source_label": "nord carolina", "sentence_idx": 2115}}, {"type": "Feature", "geometry": {"type": "Point", "coordinates": [-83.50018, 32.75042]}, "properties": {"source_label": "georgien", "sentence_idx": 2116}}, {"type": "Feature", "geometry": {"type": "Point", "coordinates": [-77.85902, 36.76478]}, "properties": {"source_label": "brunswick", "sentence_idx": 2130}}, {"type": "Feature", "geometry": {"type": "Point", "coordinates": [-77.85902, 36.76478]}, "properties": {"source_label": "brunswick", "sentence_idx": 2131}}, {"type": "Feature", "geometry": {"type": "Point", "coordinates": [-80.99706, 31.98188]}, "properties": {"source_label": "wilmington", "sentence_idx": 2132}}, {"type": "Feature", "geometry": {"type": "Point", "coordinates": [-80.99706, 31.98188]}, "properties": {"source_label": "wilmington", "sentence_idx": 2132}}, {"type": "Feature", "geometry": {"type": "Point", "coordinates": [-81.00009, 34.00043]}, "properties": {"source_label": "sued carolina", "sentence_idx": 2132}}, {"type": "Feature", "geometry": {"type": "Point", "coordinates": [-80.00032, 35.50069]}, "properties": {"source_label": "nord carolina", "sentence_idx": 2134}}]}