{"type": "FeatureCollection", "features": [{"type": "Feature", "geometry": {"type": "Point", "coordinates": [-100.54688, 46.07323]}, "properties": {"source_label": "amerika", "sentence_idx": 1580}}, {"type": "Feature", "geometry": {"type": "Point", "coordinates": [-100.54688, 46.07323]}, "properties": {"source_label": "amerika", "sentence_idx": 1592}}, {"type": "Feature", "geometry": {"type": "Point", "coordinates": [-100.54688, 46.07323]}, "properties": {"source_label": "amerika", "sentence_idx": 1594}}, {"type": "Feature", "geometry": {"type": "Point", "coordinates": [-100.54688, 46.07323]}, "properties": {"source_label": "amerika", "sentence_idx": 1601}}, {"type": "Feature", "geometry": {"type": "Point", "coordinates": [-83.50018, 32.75042]}, "properties": {"source_label": "georgien", "sentence_idx": 1602}}, {"type": "Feature", "geometry": {"type": "Point", "coordinates": [-92.0004, 31.00047]}, "properties": {"source_label": "luisiana", "sentence_idx": 1602}}, {"type": "Feature", "geometry": {"type": "Point", "coordinates": [-82.5001, 28.75054]}, "properties": {"source_label": "ostflorida", "sentence_idx": 1605}}, {"type": "Feature", "geometry": {"type": "Point", "coordinates": [-92.0004, 31.00047]}, "properties": {"source_label": "westflorida", "sentence_idx": 1605}}, {"type": "Feature", "geometry": {"type": "Point", "coordinates": [-81.31452, 29.89469]}, "properties": {"source_label": "st augustin", "sentence_idx": 1610}}, {"type": "Feature", "geometry": {"type": "Point", "coordinates": [-82.5001, 28.75054]}, "properties": {"source_label": "florida", "sentence_idx": 1610}}, {"type": "Feature", "geometry": {"type": "Point", "coordinates": [-77.37122, 25.04082]}, "properties": {"source_label": "bahama", "sentence_idx": 1610}}, {"type": "Feature", "geometry": {"type": "Point", "coordinates": [-92.0004, 31.00047]}, "properties": {"source_label": "westflorida", "sentence_idx": 1611}}, {"type": "Feature", "geometry": {"type": "Point", "coordinates": [-88.04305, 30.69436]}, "properties": {"source_label": "port lewis", "sentence_idx": 1611}}, {"type": "Feature", "geometry": {"type": "Point", "coordinates": [-100.54688, 46.07323]}, "properties": {"source_label": "nord amerika", "sentence_idx": 1612}}, {"type": "Feature", "geometry": {"type": "Point", "coordinates": [-98.5, 39.76]}, "properties": {"source_label": "amerikas", "sentence_idx": 1616}}, {"type": "Feature", "geometry": {"type": "Point", "coordinates": [-100.54688, 46.07323]}, "properties": {"source_label": "amerika", "sentence_idx": 1617}}, {"type": "Feature", "geometry": {"type": "Point", "coordinates": [-100.54688, 46.07323]}, "properties": {"source_label": "amerika", "sentence_idx": 1620}}, {"type": "Feature", "geometry": {"type": "Point", "coordinates": [-100.54688, 46.07323]}, "properties": {"source_label": "amerika", "sentence_idx": 1623}}, {"type": "Feature", "geometry": {"type": "Point", "coordinates": [-100.54688, 46.07323]}, "properties": {"source_label": "nord amerika", "sentence_idx": 1634}}]}