{"type": "FeatureCollection", "features": [{"type": "Feature", "geometry": {"type": "Point", "coordinates": [13.41053, 52.52437]}, "properties": {"source_label": "berlin", "sentence_idx": 693}}, {"type": "Feature", "geometry": {"type": "Point", "coordinates": [13.33333, 47.33333]}, "properties": {"source_label": "oesterreich", "sentence_idx": 705}}, {"type": "Feature", "geometry": {"type": "Point", "coordinates": [14.6725, 46.695]}, "properties": {"source_label": "haimburg", "sentence_idx": 705}}, {"type": "Feature", "geometry": {"type": "Point", "coordinates": [16.37208, 48.20849]}, "properties": {"source_label": "wien", "sentence_idx": 719}}, {"type": "Feature", "geometry": {"type": "Point", "coordinates": [13.33333, 47.33333]}, "properties": {"source_label": "oesterreich", "sentence_idx": 728}}, {"type": "Feature", "geometry": {"type": "Point", "coordinates": [20.0, 47.0]}, "properties": {"source_label": "ungarn", "sentence_idx": 730}}, {"type": "Feature", "geometry": {"type": "Point", "coordinates": [16.37208, 48.20849]}, "properties": {"source_label": "wien", "sentence_idx": 730}}, {"type": "Feature", "geometry": {"type": "Point", "coordinates": [8.13886, 49.35009]}, "properties": {"source_label": "neustadt", "sentence_idx": 731}}, {"type": "Feature", "geometry": {"type": "Point", "coordinates": [16.43333, 48.18333]}, "properties": {"source_label": "simmering", "sentence_idx": 731}}, {"type": "Feature", "geometry": {"type": "Point", "coordinates": [16.37208, 48.20849]}, "properties": {"source_label": "wien", "sentence_idx": 733}}, {"type": "Feature", "geometry": {"type": "Point", "coordinates": [14.6725, 46.695]}, "properties": {"source_label": "haimburg", "sentence_idx": 736}}, {"type": "Feature", "geometry": {"type": "Point", "coordinates": [29.66667, 45.33333]}, "properties": {"source_label": "donau", "sentence_idx": 737}}, {"type": "Feature", "geometry": {"type": "Point", "coordinates": [29.66667, 45.33333]}, "properties": {"source_label": "donau", "sentence_idx": 741}}, {"type": "Feature", "geometry": {"type": "Point", "coordinates": [20.0, 47.0]}, "properties": {"source_label": "ungarn", "sentence_idx": 741}}, {"type": "Feature", "geometry": {"type": "Point", "coordinates": [14.6725, 46.695]}, "properties": {"source_label": "haimburg", "sentence_idx": 750}}, {"type": "Feature", "geometry": {"type": "Point", "coordinates": [18.17738, 49.09027]}, "properties": {"source_label": "rotenstein", "sentence_idx": 750}}, {"type": "Feature", "geometry": {"type": "Point", "coordinates": [29.66667, 45.33333]}, "properties": {"source_label": "donau", "sentence_idx": 753}}, {"type": "Feature", "geometry": {"type": "Point", "coordinates": [20.0, 47.0]}, "properties": {"source_label": "ungarn", "sentence_idx": 757}}, {"type": "Feature", "geometry": {"type": "Point", "coordinates": [16.37208, 48.20849]}, "properties": {"source_label": "wien", "sentence_idx": 760}}, {"type": "Feature", "geometry": {"type": "Point", "coordinates": [16.37208, 48.20849]}, "properties": {"source_label": "wien", "sentence_idx": 762}}, {"type": "Feature", "geometry": {"type": "Point", "coordinates": [16.37208, 48.20849]}, "properties": {"source_label": "wien", "sentence_idx": 765}}, {"type": "Feature", "geometry": {"type": "Point", "coordinates": [16.37208, 48.20849]}, "properties": {"source_label": "wiens", "sentence_idx": 772}}, {"type": "Feature", "geometry": {"type": "Point", "coordinates": [16.37208, 48.20849]}, "properties": {"source_label": "wien", "sentence_idx": 787}}, {"type": "Feature", "geometry": {"type": "Point", "coordinates": [16.37208, 48.20849]}, "properties": {"source_label": "wien", "sentence_idx": 798}}, {"type": "Feature", "geometry": {"type": "Point", "coordinates": [16.37208, 48.20849]}, "properties": {"source_label": "wieden", "sentence_idx": 799}}, {"type": "Feature", "geometry": {"type": "Point", "coordinates": [12.51133, 41.89193]}, "properties": {"source_label": "rom", "sentence_idx": 802}}]}