{"type": "FeatureCollection", "features": [{"type": "Feature", "geometry": {"type": "Point", "coordinates": [8.68417, 50.11552]}, "properties": {"source_label": "frankfurt", "sentence_idx": 1217}}, {"type": "Feature", "geometry": {"type": "Point", "coordinates": [17.10674, 48.14816]}, "properties": {"source_label": "pre\u00dfburg", "sentence_idx": 1218}}, {"type": "Feature", "geometry": {"type": "Point", "coordinates": [16.37208, 48.20849]}, "properties": {"source_label": "wien", "sentence_idx": 1221}}, {"type": "Feature", "geometry": {"type": "Point", "coordinates": [20.46513, 44.80401]}, "properties": {"source_label": "belgrads", "sentence_idx": 1229}}, {"type": "Feature", "geometry": {"type": "Point", "coordinates": [13.33333, 47.33333]}, "properties": {"source_label": "oesterreich", "sentence_idx": 1233}}, {"type": "Feature", "geometry": {"type": "Point", "coordinates": [20.0, 47.0]}, "properties": {"source_label": "ungarn", "sentence_idx": 1234}}, {"type": "Feature", "geometry": {"type": "Point", "coordinates": [29.66667, 45.33333]}, "properties": {"source_label": "donau", "sentence_idx": 1235}}, {"type": "Feature", "geometry": {"type": "Point", "coordinates": [20.0, 47.0]}, "properties": {"source_label": "ungarn", "sentence_idx": 1244}}, {"type": "Feature", "geometry": {"type": "Point", "coordinates": [10.32618, 44.79935]}, "properties": {"source_label": "parma", "sentence_idx": 1254}}, {"type": "Feature", "geometry": {"type": "Point", "coordinates": [13.33333, 47.33333]}, "properties": {"source_label": "oesterreich", "sentence_idx": 1257}}, {"type": "Feature", "geometry": {"type": "Point", "coordinates": [20.0, 47.0]}, "properties": {"source_label": "ungarn", "sentence_idx": 1263}}, {"type": "Feature", "geometry": {"type": "Point", "coordinates": [15.0, 62.0]}, "properties": {"source_label": "schweden", "sentence_idx": 1267}}, {"type": "Feature", "geometry": {"type": "Point", "coordinates": [13.25, 51.0]}, "properties": {"source_label": "sachsen", "sentence_idx": 1267}}, {"type": "Feature", "geometry": {"type": "Point", "coordinates": [20.0, 47.0]}, "properties": {"source_label": "ungarn", "sentence_idx": 1272}}, {"type": "Feature", "geometry": {"type": "Point", "coordinates": [5.06703, 49.79324]}, "properties": {"source_label": "bouillon", "sentence_idx": 1272}}, {"type": "Feature", "geometry": {"type": "Point", "coordinates": [16.37208, 48.20849]}, "properties": {"source_label": "wiens", "sentence_idx": 1280}}, {"type": "Feature", "geometry": {"type": "Point", "coordinates": [20.46513, 44.80401]}, "properties": {"source_label": "belgrad", "sentence_idx": 1280}}, {"type": "Feature", "geometry": {"type": "Point", "coordinates": [2.08333, 48.86667]}, "properties": {"source_label": "marly", "sentence_idx": 1287}}, {"type": "Feature", "geometry": {"type": "Point", "coordinates": [2.0, 46.0]}, "properties": {"source_label": "frankreich", "sentence_idx": 1287}}, {"type": "Feature", "geometry": {"type": "Point", "coordinates": [11.24626, 43.77925]}, "properties": {"source_label": "florenz", "sentence_idx": 1291}}, {"type": "Feature", "geometry": {"type": "Point", "coordinates": [12.51133, 41.89193]}, "properties": {"source_label": "rom", "sentence_idx": 1291}}, {"type": "Feature", "geometry": {"type": "Point", "coordinates": [11.24626, 43.77925]}, "properties": {"source_label": "florenz", "sentence_idx": 1302}}, {"type": "Feature", "geometry": {"type": "Point", "coordinates": [8.68417, 50.11552]}, "properties": {"source_label": "frankfurt", "sentence_idx": 1302}}, {"type": "Feature", "geometry": {"type": "Point", "coordinates": [17.10674, 48.14816]}, "properties": {"source_label": "pre\u00dfburg", "sentence_idx": 1302}}, {"type": "Feature", "geometry": {"type": "Point", "coordinates": [14.42076, 50.08804]}, "properties": {"source_label": "prag", "sentence_idx": 1302}}, {"type": "Feature", "geometry": {"type": "Point", "coordinates": [11.24626, 43.77925]}, "properties": {"source_label": "florenz", "sentence_idx": 1311}}]}