{"type": "FeatureCollection", "features": [{"type": "Feature", "geometry": {"type": "Point", "coordinates": [14.42076, 50.08804]}, "properties": {"source_label": "prag", "sentence_idx": 2455}}, {"type": "Feature", "geometry": {"type": "Point", "coordinates": [16.48859, 50.84378]}, "properties": {"source_label": "schweidnitz", "sentence_idx": 2463}}, {"type": "Feature", "geometry": {"type": "Point", "coordinates": [15.26816, 49.94839]}, "properties": {"source_label": "kuttenberg", "sentence_idx": 2464}}, {"type": "Feature", "geometry": {"type": "Point", "coordinates": [18.0, 51.0]}, "properties": {"source_label": "schlesien", "sentence_idx": 2465}}, {"type": "Feature", "geometry": {"type": "Point", "coordinates": [15.47686, 49.81626]}, "properties": {"source_label": "jenikau", "sentence_idx": 2465}}, {"type": "Feature", "geometry": {"type": "Point", "coordinates": [12.65, 50.45]}, "properties": {"source_label": "auersberg", "sentence_idx": 2466}}, {"type": "Feature", "geometry": {"type": "Point", "coordinates": [14.26811, 40.85216]}, "properties": {"source_label": "neapel", "sentence_idx": 2466}}, {"type": "Feature", "geometry": {"type": "Point", "coordinates": [16.37208, 48.20849]}, "properties": {"source_label": "wien", "sentence_idx": 2478}}]}